id,model_state,date_created,date_modified,date_deleted,name,address,locality,lat,lng,active
4,1,2023-11-13 16:23:08,2023-11-13 16:23:08,2023-11-13 16:23:08,EL MUNDO DEL JUGUETE,"FLORIDA 648,CAPITAL FEDERAL,CAPITAL FEDERAL",CABA,-34.6033,-58.37453,1
5,1,2023-11-13 16:23:08,2023-11-13 16:23:08,2023-11-13 16:23:08,EL MUNDO DEL JUGUETE,"CALLE 20 DE FEBRERO 1437,SALTA,SALTA",INT,-24.771386,-65.4131575,1
6,1,2023-11-13 16:23:08,2023-11-13 16:23:08,2023-11-13 16:23:08,EL MUNDO DEL JUGUETE,"AV CABILDO 1537,CAPITAL FEDERAL,CAPITAL FEDERAL",CABA,-34.5664847,-58.4512852,1
7,1,2023-11-13 16:23:08,2023-11-13 16:23:08,2023-11-13 16:23:08,EL MUNDO DEL JUGUETE,"NENSEN 323 - EL PORTAL,SANTA FE,ROSARIO",INT,-32.9105441,-60.6833145,1
8,1,2023-11-13 16:23:08,2023-11-13 16:23:08,2023-11-13 16:23:08,EL MUNDO DEL JUGUETE,"JUNIN 501 - ALTO ROSARIO,SANTA FE,ROSARIO",INT,-32.9274658,-60.6690017,1
9,1,2023-11-13 16:23:08,2023-11-13 16:23:08,2023-11-13 16:23:08,EL MUNDO DEL JUGUETE,"AV. F. CARIOLA 48,TUCUMAN,TUCUMAN",INT,-26.8207367,-65.2675599,1
10,1,2023-11-13 16:23:08,2023-11-13 16:23:08,2023-11-13 16:23:08,EL MUNDO DEL JUGUETE,"VIAMONTE 575 - GAL. PACIFICO,CAPITAL FEDERAL,CAPITAL FEDERAL",CABA,-34.5991549,-58.3747603,1
11,1,2023-11-13 16:23:08,2023-11-13 16:23:08,2023-11-13 16:23:08,EL MUNDO DEL JUGUETE,"FLORIDA 158,CAPITAL FEDERAL,CAPITAL FEDERAL",CABA,-34.6033,-58.37453,1
12,1,2023-11-13 16:23:08,2023-11-13 16:23:08,2023-11-13 16:23:08,EL MUNDO DEL JUGUETE,"PARANA 3745 - UNIC. NIVEL 2,BUENOS AIRES,MARTINEZ",GBA,-34.5086233,-58.52321,1
13,1,2023-11-13 16:23:08,2023-11-13 16:23:08,2023-11-13 16:23:08,EL MUNDO DEL JUGUETE,"VEDIA 3626 - SHOPPING DOT,CAPITAL FEDERAL,CAPITAL FEDERAL",CABA,-34.5464856,-58.4878535,1
14,1,2023-11-13 16:23:08,2023-11-13 16:23:08,2023-11-13 16:23:08,EL MUNDO DEL JUGUETE,"CABILDO 2331,CAPITAL FEDERAL,CAPITAL FEDERAL",CABA,-34.559653,-58.4584069,1
15,1,2023-11-13 16:23:08,2023-11-13 16:23:08,2023-11-13 16:23:08,EL MUNDO DEL JUGUETE,"CORDOBA 502,CAPITAL FEDERAL,CAPITAL FEDERAL",CABA,-34.598743,-58.403959,1
16,1,2023-11-13 16:23:08,2023-11-13 16:23:08,2023-11-13 16:23:08,EL MUNDO DEL JUGUETE,"F. F. DE LA CRUZ 4602,CAPITAL FEDERAL,CAPITAL FEDERAL",CABA,-34.6748316,-58.4599271,1
17,1,2023-11-13 16:23:08,2023-11-13 16:23:08,2023-11-13 16:23:08,EL MUNDO DEL JUGUETE,"A.ARGENTINA 703 - LOMAS CENTER,BUENOS AIRES,LOMAS DE ZAMORA",GBA,-34.7917649,-58.4168007,1
18,1,2023-11-13 16:23:08,2023-11-13 16:23:08,2023-11-13 16:23:08,EL MUNDO DEL JUGUETE,"SANTA FE 3253 - ALTO PALERMO,CAPITAL FEDERAL,CAPITAL FEDERAL",CABA,-34.5880019,-58.4104412,1
19,1,2023-11-13 16:23:08,2023-11-13 16:23:08,2023-11-13 16:23:08,EL MUNDO DEL JUGUETE,"SAN LORENZO 3773 - SM FACTORY,BUENOS AIRES,SAN MARTIN",GBA,-34.5757521,-58.5370965,1
20,1,2023-11-13 16:23:08,2023-11-13 16:23:08,2023-11-13 16:23:08,EL MUNDO DEL JUGUETE,"ARCE 940 - SOLAR DE LA ABADIA,CAPITAL FEDERAL,CAPITAL FEDERAL",CABA,-34.5680404,-58.4373399,1
21,1,2023-11-13 16:23:08,2023-11-13 16:23:08,2023-11-13 16:23:08,EL MUNDO DEL JUGUETE,"GUEMES 897 - ALTO AVELLANEDA,BUENOS AIRES,AVELLANEDA",GBA,-34.6754783,-58.367457,1
22,1,2023-11-13 16:23:08,2023-11-13 16:23:08,2023-11-13 16:23:08,EL MUNDO DEL JUGUETE,"AV. BULLRICH 354 - JUMBO PALER,CAPITAL FEDERAL,CAPITAL FEDERAL",CABA,-34.5755018,-58.4253888,1
23,1,2023-11-13 16:23:08,2023-11-13 16:23:08,2023-11-13 16:23:08,EL MUNDO DEL JUGUETE,"JM D ROSAS 658/760 - PZA OESTE,BUENOS AIRES,MORON",GBA,-34.6558611,-58.6167212,1
24,1,2023-11-13 16:23:08,2023-11-13 16:23:08,2023-11-13 16:23:08,EL MUNDO DEL JUGUETE,"FLORIDA 356,CAPITAL FEDERAL,CAPITAL FEDERAL",CABA,-34.6033,-58.37453,1
25,1,2023-11-13 16:23:08,2023-11-13 16:23:08,2023-11-13 16:23:08,EL MUNDO DEL JUGUETE,"AU. BS AS LA PLATA KM 6 L1065,BUENOS AIRES,AVELLANEDA",GBA,-34.6610756,-58.3669739,1
26,1,2023-11-13 16:23:08,2023-11-13 16:23:08,2023-11-13 16:23:08,EL MUNDO DEL JUGUETE,"CALCHAQUI 3950 - QUILM FACTORY,BUENOS AIRES,QUILMES",GBA,-34.7592099,-58.2772702,1
27,1,2023-11-13 16:23:08,2023-11-13 16:23:08,2023-11-13 16:23:08,EL MUNDO DEL JUGUETE,"BELGRANO 267,BUENOS AIRES,SAN ISIDRO",GBA,-34.4703008,-58.5117159,1
28,1,2023-11-13 16:23:08,2023-11-13 16:23:08,2023-11-13 16:23:08,EL MUNDO DEL JUGUETE,"CORRIENTES 3247 - ABASTO,CAPITAL FEDERAL,CAPITAL FEDERAL",CABA,-34.6038802,-58.4109897,1
29,1,2023-11-13 16:23:08,2023-11-13 16:23:08,2023-11-13 16:23:08,EL MUNDO DEL JUGUETE,"SARMIENTO 2200 - PZA SHOPPING,BUENOS AIRES,BAHIA BLANCA",GBA,-38.7183177,-62.2663478,1
30,1,2023-11-13 16:23:08,2023-11-13 16:23:08,2023-11-13 16:23:08,EL MUNDO DEL JUGUETE,"LAS MAGNOLIAS 754 - LAS PALMAS,BUENOS AIRES,PILAR",GBA,-34.4462858,-58.8704582,1
31,1,2023-11-13 16:23:08,2023-11-13 16:23:08,2023-11-13 16:23:08,EL MUNDO DEL JUGUETE,"ALVEAR 49,BUENOS AIRES,MARTINEZ",GBA,-34.489272,-58.4998486,1
32,1,2023-11-13 16:23:08,2023-11-13 16:23:08,2023-11-13 16:23:08,EL MUNDO DEL JUGUETE,"AV. ACCESO ESTE 3280,MENDOZA,MENDOZA",INT,-32.9009692,-68.7993948,1
33,1,2023-11-13 16:23:08,2023-11-13 16:23:08,2023-11-13 16:23:08,EL MUNDO DEL JUGUETE,"CALLE 47 NRO. 611/3/5,BUENOS AIRES,LA PLATA",GBA,-34.9131755,-57.9525428,1
34,1,2023-11-13 16:23:08,2023-11-13 16:23:08,2023-11-13 16:23:08,EL MUNDO DEL JUGUETE,"RTA PCIAL N 251710 Y COL OESTE,BUENOS AIRES,ESCOBAR",GBA,-34.345965,-58.7953449,1
35,1,2023-11-13 16:23:08,2023-11-13 16:23:08,2023-11-13 16:23:08,EL MUNDO DEL JUGUETE,"AV. H. YRIGUYEN Y RUTA PROV 7,CHUBUT,TRELEW",INT,-34.6603867,-58.6210408,1
36,1,2023-11-13 16:23:08,2023-11-13 16:23:08,2023-11-13 16:23:08,EL MUNDO DEL JUGUETE,"AV. OLIVOS 4100 LOCAL 115,BUENOS AIRES,MALVINAS ARGENTINAS",GBA,-34.4501436,-58.7251348,1
37,1,2023-11-13 16:23:08,2023-11-13 16:23:08,2023-11-13 16:23:08,EL MUNDO DEL JUGUETE,"FLORIDA 356,CAPITAL FEDERAL,CAPITAL FEDERAL",CABA,-34.6033,-58.37453,1
38,1,2023-11-13 16:23:08,2023-11-13 16:23:08,2023-11-13 16:23:08,GIRO DIDACTICO,"25 DE MAYO 346 - LOCAL B,TUCUMAN,SAN MIGUEL DE TUCUMAN",INT,-26.8118673,-65.200211,1
39,1,2023-11-13 16:23:08,2023-11-13 16:23:08,2023-11-13 16:23:08,GIRO DIDACTICO,"PELAGIO LUNA 684 LOC. 13,LA RIOJA,LA RIOJA",INT,-29.4124652,-66.8577601,1
40,1,2023-11-13 16:23:08,2023-11-13 16:23:08,2023-11-13 16:23:08,GIRO DIDACTICO,"SANTA FE 300,CHACO,RESISTENCIA",INT,-27.4472541,-58.9872219,1
41,1,2023-11-13 16:23:08,2023-11-13 16:23:08,2023-11-13 16:23:08,GIRO DIDACTICO,"AV. CORDOBA 429,CAPITAL FEDERAL,CAPITAL FEDERAL",CABA,-34.5983308,-58.3732397,1
42,1,2023-11-13 16:23:08,2023-11-13 16:23:08,2023-11-13 16:23:08,GIRO DIDACTICO,"ELIAS YOFRE 1050 LOCAL 3,CORDOBA,CORDOBA",INT,-31.4506379,-64.180409,1
43,1,2023-11-13 16:23:08,2023-11-13 16:23:08,2023-11-13 16:23:08,GIRO DIDACTICO,"PELLEGRINI 583,CHACO,ROQUE SAENZ PEÑA",INT,-26.7900577,-60.4426964,1
44,1,2023-11-13 16:23:08,2023-11-13 16:23:08,2023-11-13 16:23:08,GIRO DIDACTICO,"VELEZ SARSFIELD 365,CORDOBA,RIO TERCERO",INT,-32.1722029,-64.1145768,1
45,1,2023-11-13 16:23:08,2023-11-13 16:23:08,2023-11-13 16:23:08,GIRO DIDACTICO,"ALVEAR 72,BUENOS AIRES,CHIVILCOY",GBA,-34.8969795,-60.0190731,1
46,1,2023-11-13 16:23:08,2023-11-13 16:23:08,2023-11-13 16:23:08,GIRO DIDACTICO,"LAS MAGNOLIAS 754 LOC. 1186,BUENOS AIRES,PILAR",GBA,-34.4462858,-58.8704582,1
47,1,2023-11-13 16:23:08,2023-11-13 16:23:08,2023-11-13 16:23:08,GIRO DIDACTICO,"CALLE 24 N 387 ENTRE 17 Y 15,BUENOS AIRES,MERCEDES",GBA,-34.6510201,-59.4305996,1
48,1,2023-11-13 16:23:08,2023-11-13 16:23:08,2023-11-13 16:23:08,GIRO DIDACTICO,"9 DE JULIO 28,BUENOS AIRES,SAN NICOLAS",GBA,-34.60405,-58.3811068,1
49,1,2023-11-13 16:23:08,2023-11-13 16:23:08,2023-11-13 16:23:08,GIRO DIDACTICO,"SAN MARTIN 236,BUENOS AIRES,TRENQUE LAUQUEN",GBA,-35.9699706,-62.7337971,1
50,1,2023-11-13 16:23:08,2023-11-13 16:23:08,2023-11-13 16:23:08,GIRO DIDACTICO,"9 DE JULIO 162,CORDOBA,VILLA MARIA",INT,-32.4104614,-63.243645,1
51,1,2023-11-13 16:23:08,2023-11-13 16:23:08,2023-11-13 16:23:08,GIRO DIDACTICO,"RIOJA 1798,SANTA FE,ROSARIO",INT,-32.945779,-60.648027,1
52,1,2023-11-13 16:23:08,2023-11-13 16:23:08,2023-11-13 16:23:08,GIRO DIDACTICO,"GALO LAVALLE 734,BUENOS AIRES,TEMPERLEY",GBA,-34.7678337,-58.3792534,1
53,1,2023-11-13 16:23:08,2023-11-13 16:23:08,2023-11-13 16:23:08,GIRO DIDACTICO,"DIRECCION CANTILO 84 ESQ. 8 13,BUENOS AIRES,CITY BELL",GBA,-34.6036844,-58.3815591,1
54,1,2023-11-13 16:23:08,2023-11-13 16:23:08,2023-11-13 16:23:08,GIRO DIDACTICO,"SARMIENTO 111,SANTA CRUZ,RIO GALLEGOS",INT,-51.6230485,-69.2168291,1
55,1,2023-11-13 16:23:08,2023-11-13 16:23:08,2023-11-13 16:23:08,GIRO DIDACTICO,"SAN MARTIN 414,CATAMARCA,SAN FERNANDO DEL VALLE DE CATAMARCA",INT,-28.4696549,-65.7809487,1
56,1,2023-11-13 16:23:08,2023-11-13 16:23:08,2023-11-13 16:23:08,GIRO DIDACTICO,"SCALABRINI ORTIZ 3176,CAPITAL FEDERAL,CAPITAL FEDERAL",CABA,-34.580112,-58.4101073,1
57,1,2023-11-13 16:23:08,2023-11-13 16:23:08,2023-11-13 16:23:08,GIRO DIDACTICO,"PARANA 3745,BUENOS AIRES,MARTINEZ",GBA,-34.5086233,-58.52321,1
58,1,2023-11-13 16:23:08,2023-11-13 16:23:08,2023-11-13 16:23:08,GIRO DIDACTICO,"GANDINI 36,BUENOS AIRES,JUNIN",GBA,-34.5920146,-60.9461431,1
59,1,2023-11-13 16:23:08,2023-11-13 16:23:08,2023-11-13 16:23:08,GIRO DIDACTICO,"ROCA 22,RIO NEGRO,CIPOLLETTI",GBA,-38.9379949,-68.0012207,1
60,1,2023-11-13 16:23:08,2023-11-13 16:23:08,2023-11-13 16:23:08,GIRO DIDACTICO,"FORMOSA 653 - LOCAL 1140,BUENOS AIRES,CANNING",GBA,-34.871276,-58.5111163,1
61,1,2023-11-13 16:23:08,2023-11-13 16:23:08,2023-11-13 16:23:08,GIRO DIDACTICO,"CALLE 50 488 ENTRE 4 Y 5,BUENOS AIRES,LA PLATA",GBA,-34.9204948,-57.9535657,1
62,1,2023-11-13 16:23:08,2023-11-13 16:23:08,2023-11-13 16:23:08,GIRO DIDACTICO,"CALLE 18 N 502,LA PAMPA,GENERAL PICO",INT,-35.6510128,-63.7655339,1
63,1,2023-11-13 16:23:08,2023-11-13 16:23:08,2023-11-13 16:23:08,GIRO DIDACTICO,"MITRE 7 ESQUINA ALSINA,BUENOS AIRES,DAIREAUX",GBA,-36.5994803,-61.7475931,1
64,1,2023-11-13 16:23:08,2023-11-13 16:23:08,2023-11-13 16:23:08,GIRO DIDACTICO,"HIPOLITO IRIGOYEN 880,CORRIENTES,CORRIENTES",INT,-27.4684849,-58.8395686,1
65,1,2023-11-13 16:23:08,2023-11-13 16:23:08,2023-11-13 16:23:08,GIRO DIDACTICO,"CAPITAN DRURY 860,NEUQUEN,CHAPELCO",INT,-38.9516784,-68.0591888,1
66,1,2023-11-13 16:23:08,2023-11-13 16:23:08,2023-11-13 16:23:08,GIRO DIDACTICO,"ALVEAR 758,SANTA FE,VENADO TUERTO",INT,-33.7419769,-61.9590124,1
67,1,2023-11-13 16:23:08,2023-11-13 16:23:08,2023-11-13 16:23:08,GIRO DIDACTICO,"PADRE PATIÑO 545 LOCAL 3,FORMOSA,FORMOSA",INT,-26.1811046,-58.1709396,1
68,1,2023-11-13 16:23:08,2023-11-13 16:23:08,2023-11-13 16:23:08,GIRO DIDACTICO,"SARMIENTO 225,BUENOS AIRES,GENERAL VILLEGAS",GBA,-35.0326402,-63.0148417,1
69,1,2023-11-13 16:23:08,2023-11-13 16:23:08,2023-11-13 16:23:08,GIRO DIDACTICO,"CNEL. BONORINO 28,CAPITAL FEDERAL,CAPITAL FEDERAL",CABA,-34.6283465,-58.4595638,1
70,1,2023-11-13 16:23:08,2023-11-13 16:23:08,2023-11-13 16:23:08,GIRO DIDACTICO,"CIUDAD DE RODEZ 401,BUENOS AIRES,PIGUE",GBA,-37.6050352,-62.4056267,1
71,1,2023-11-13 16:23:08,2023-11-13 16:23:08,2023-11-13 16:23:08,GIRO DIDACTICO,"AV. RIVADAVIA 4725,CAPITAL FEDERAL,CAPITAL FEDERAL",CABA,-34.6162201,-58.4321336,1
72,1,2023-11-13 16:23:08,2023-11-13 16:23:08,2023-11-13 16:23:08,GIRO DIDACTICO,"ARCE 940 LOCAL 200 BELGRANO,CAPITAL FEDERAL,CAPITAL FEDERAL",CABA,-34.564658,-58.451773,1
73,1,2023-11-13 16:23:08,2023-11-13 16:23:08,2023-11-13 16:23:08,GIRO DIDACTICO,"RUFINO DE ELIZALDE 3346,BUENOS AIRES,EL TALAR",GBA,-34.4720967,-58.6540206,1
74,1,2023-11-13 16:23:08,2023-11-13 16:23:08,2023-11-13 16:23:08,GIRO DIDACTICO,"AV CALLAO 1160,CAPITAL FEDERAL,CAPITAL FEDERAL",CABA,-34.595244,-58.3935523,1
75,1,2023-11-13 16:23:08,2023-11-13 16:23:08,2023-11-13 16:23:08,GIRO DIDACTICO,"AV VITERBORI 1550,RIO NEGRO,GENERAL ROCA",GBA,-39.059349,-67.5824718,1
76,1,2023-11-13 16:23:08,2023-11-13 16:23:08,2023-11-13 16:23:08,GIRO DIDACTICO,"LAMADRID  94,BUENOS AIRES,BAHIA BLANCA",GBA,-38.7158189,-62.2616029,1
77,1,2023-11-13 16:23:08,2023-11-13 16:23:08,2023-11-13 16:23:08,GIRO DIDACTICO,"ASAMBLEA 936,CAPITAL FEDERAL,CAPITAL FEDERAL",CABA,-34.6036844,-58.3815591,1
78,1,2023-11-13 16:23:08,2023-11-13 16:23:08,2023-11-13 16:23:08,GIRO DIDACTICO,"AV. CALLAO 1160,CAPITAL FEDERAL,CAPITAL FEDERAL",CABA,-34.595244,-58.3935523,1
79,1,2023-11-13 16:23:08,2023-11-13 16:23:08,2023-11-13 16:23:08,GIRO DIDACTICO,"AV.VIRREY TOLEDO 702 LOC.121,SALTA,SALTA",INT,-24.7813068,-65.4027774,1
80,1,2023-11-13 16:23:08,2023-11-13 16:23:08,2023-11-13 16:23:08,GIRO DIDACTICO,"CAPITAN ALDO GARRIDO 325 EX CH,BUENOS AIRES,SAN ISIDRO",GBA,-34.4692827,-58.5101713,1
81,1,2023-11-13 16:23:08,2023-11-13 16:23:08,2023-11-13 16:23:08,GIRO DIDACTICO,"25 de MAYO 167,LA PAMPA,SANTA ROSA",INT,-36.6210202,-64.2886915,1
82,1,2023-11-13 16:23:08,2023-11-13 16:23:08,2023-11-13 16:23:08,GIRO DIDACTICO,"ALVEAR 601,CHUBUT,COMODORO RIVADAVIA",INT,-45.8644441,-67.4971555,1
83,1,2023-11-13 16:23:08,2023-11-13 16:23:08,2023-11-13 16:23:08,GIRO DIDACTICO,"GARAY 1244,BUENOS AIRES,MAR DEL PLATA",GBA,-38.0054771,-57.5426106,1
84,1,2023-11-13 16:23:08,2023-11-13 16:23:08,2023-11-13 16:23:08,GIRO DIDACTICO,"24 DE SEPTIEMBRE 180,SANTIAGO DEL ESTERO,SANTIAGO DEL ESTERO",INT,-27.7891355,-64.2591749,1
85,1,2023-11-13 16:23:08,2023-11-13 16:23:08,2023-11-13 16:23:08,GIRO DIDACTICO,"AV. ALVEAR 379,BUENOS AIRES,MARTINEZ",GBA,-34.5883569,-58.3881272,1
86,1,2023-11-13 16:23:08,2023-11-13 16:23:08,2023-11-13 16:23:08,GIRO DIDACTICO,"DIAGONAL 74 1484,BUENOS AIRES,LA PLATA",GBA,-34.9158264,-57.9547152,1
87,1,2023-11-13 16:23:08,2023-11-13 16:23:08,2023-11-13 16:23:08,GIRO DIDACTICO,"JURAMENTO 2427,CAPITAL FEDERAL,CAPITAL FEDERAL",INT,-34.5620788,-58.4572238,1
88,1,2023-11-13 16:23:08,2023-11-13 16:23:08,2023-11-13 16:23:08,COMPAÑIA DE JUGUETES,"GUEMES 702,JUJUY,SAN SALVADOR DE JUJUY",INT,-24.182942,-65.3030699,1
89,1,2023-11-13 16:23:08,2023-11-13 16:23:08,2023-11-13 16:23:08,COMPAÑIA DE JUGUETES,"AV.VIRREY TOLEDO 702 Loc.121,SALTA,SALTA",INT,-24.7813068,-65.4027774,1
90,1,2023-11-13 16:23:08,2023-11-13 16:23:08,2023-11-13 16:23:08,COMPAÑIA DE JUGUETES,"PARANA 3745  LOCAL 3021,BUENOS AIRES,MARTINEZ",GBA,-34.5086233,-58.52321,1
91,1,2023-11-13 16:23:08,2023-11-13 16:23:08,2023-11-13 16:23:08,COMPAÑIA DE JUGUETES,"25 de MAYO 167,LA PAMPA,SANTA ROSA",INT,-36.6210202,-64.2886915,1
92,1,2023-11-13 16:23:08,2023-11-13 16:23:08,2023-11-13 16:23:08,COMPAÑIA DE JUGUETES,"CTRO COMER ALTOS DEL SOLAR L5,CATAMARCA,SAN FERNANDO DEL VALLE DE CATAMARCA",INT,-28.4645658,-65.8012843,1
93,1,2023-11-13 16:23:08,2023-11-13 16:23:08,2023-11-13 16:23:08,COMPAÑIA DE JUGUETES,"AV. CORONEL DIAZ 2089,CAPITAL FEDERAL,CAPITAL FEDERAL",CABA,-34.5878127,-58.4089342,1
94,1,2023-11-13 16:23:08,2023-11-13 16:23:08,2023-11-13 16:23:08,COMPAÑIA DE JUGUETES,"AV. JOSE I DE LA ROZA 806,SAN JUAN,SAN JUAN",INT,-31.5378572,-68.5388619,1
95,1,2023-11-13 16:23:08,2023-11-13 16:23:08,2023-11-13 16:23:08,COMPAÑIA DE JUGUETES,"FORMOSA 653 - LOCAL 2090,BUENOS AIRES,CANNING",GBA,-34.871276,-58.5111163,1
96,1,2023-11-13 16:23:08,2023-11-13 16:23:08,2023-11-13 16:23:08,COMPAÑIA DE JUGUETES,"URUGUAY 1207,CAPITAL FEDERAL,CAPITAL FEDERAL",CABA,-34.604076,-58.3868214,1
97,1,2023-11-13 16:23:08,2023-11-13 16:23:08,2023-11-13 16:23:08,COMPAÑIA DE JUGUETES,"SAN MARTIN 221,BUENOS AIRES,DOLORES",GBA,-36.3152317,-57.6753107,1
98,1,2023-11-13 16:23:08,2023-11-13 16:23:08,2023-11-13 16:23:08,COMPAÑIA DE JUGUETES,"AV. CORREINTES 521,CAPITAL FEDERAL,CAPITAL FEDERAL",CABA,-34.6030632,-58.3741159,1
99,1,2023-11-13 16:23:08,2023-11-13 16:23:08,2023-11-13 16:23:08,COMPAÑIA DE JUGUETES,"SARMIENTO 2153 LOCAL 199,BUENOS AIRES,BAHIA BLANCA",GBA,-38.7042555,-62.2913003,1
100,1,2023-11-13 16:23:08,2023-11-13 16:23:08,2023-11-13 16:23:08,COMPAÑIA DE JUGUETES,"AV.ELCANO 3201,CAPITAL FEDERAL,CAPITAL FEDERAL",CABA,-34.5732881,-58.4598999,1
101,1,2023-11-13 16:23:08,2023-11-13 16:23:08,2023-11-13 16:23:08,COMPAÑIA DE JUGUETES,"SAN NICOLAS 268,BUENOS AIRES,PERGAMINO",GBA,-33.8916753,-60.5715932,1
102,1,2023-11-13 16:23:08,2023-11-13 16:23:08,2023-11-13 16:23:08,COMPAÑIA DE JUGUETES,"AV OLIVOS 4100 LOCAL 113,BUENOS AIRES,TORTUGUITAS",GBA,-34.4501436,-58.7251348,1
103,1,2023-11-13 16:23:08,2023-11-13 16:23:08,2023-11-13 16:23:08,COMPAÑIA DE JUGUETES,"Blvd CHENAULT 1980  ESQ LM CAM,CAPITAL FEDERAL,CAPITAL FEDERAL",CABA,-34.6036844,-58.3815591,1
104,1,2023-11-13 16:23:08,2023-11-13 16:23:08,2023-11-13 16:23:08,EDUCANDO,"F. ALCORTA Y SALGUERO N.3 L 27,CAPITAL FEDERAL,CAPITAL FEDERAL",CABA,-34.6036844,-58.3815591,1
105,1,2023-11-13 16:23:08,2023-11-13 16:23:08,2023-11-13 16:23:08,EDUCANDO,"GÜEMES 3026,BUENOS AIRES,MAR DEL PLATA",INT,-38.0126863,-57.5503374,1
106,1,2023-11-13 16:23:08,2023-11-13 16:23:08,2023-11-13 16:23:08,EDUCANDO,"JUAN B. JUSTO 1820,BUENOS AIRES,MAR DEL PLATA",INT,-38.0282607,-57.5591692,1
107,1,2023-11-13 16:23:08,2023-11-13 16:23:08,2023-11-13 16:23:08,EDUCANDO,"RIVADAVIA 3067,BUENOS AIRES,MAR DEL PLATA",INT,-37.9978013,-57.5520598,1
108,1,2023-11-13 16:23:08,2023-11-13 16:23:08,2023-11-13 16:23:08,EDUCANDO,"SARMIENTO 2685,BUENOS AIRES,MAR DEL PLATA",INT,-38.012144,-57.5438957,1
109,1,2023-11-13 16:23:08,2023-11-13 16:23:08,2023-11-13 16:23:08,EDUCANDO,"SARMIENTO 2685,BUENOS AIRES,MAR DEL PLATA",INT,-38.012144,-57.5438957,1
110,1,2023-11-13 16:23:08,2023-11-13 16:23:08,2023-11-13 16:23:08,EDUCANDO,"SAN JUAN 1864,BUENOS AIRES,MAR DEL PLATA",INT,-38.0054771,-57.5426106,1
111,1,2023-11-13 16:23:08,2023-11-13 16:23:08,2023-11-13 16:23:08,EDUCANDO,"GOROSTIAGA 1720,CAPITAL FEDERAL,CAPITAL FEDERAL",CABA,-34.5655464,-58.4367395,1
112,1,2023-11-13 16:23:08,2023-11-13 16:23:08,2023-11-13 16:23:08,EDUCANDO,"SERRANO 902,CAPITAL FEDERAL,CAPITAL FEDERAL",CABA,-34.6036844,-58.3815591,1
113,1,2023-11-13 16:23:08,2023-11-13 16:23:08,2023-11-13 16:23:08,EDUCANDO,"ROLANDO 77,RIO NEGRO,SAN CARLOS DE BARILOCHE",INT,-41.132839,-71.3052911,1
114,1,2023-11-13 16:23:08,2023-11-13 16:23:08,2023-11-13 16:23:08,EDUCANDO,"VEDIA 3620 NIV.2 LOCAL 23,CAPITAL FEDERAL,CAPITAL FEDERAL",CABA,-34.6036844,-58.3815591,1
115,1,2023-11-13 16:23:08,2023-11-13 16:23:08,2023-11-13 16:23:08,CEBRA,"AV. CALLAO 575,CAPITAL FEDERAL,CAPITAL FEDERAL",CABA,-34.6022862,-58.3923947,1
116,1,2023-11-13 16:23:08,2023-11-13 16:23:08,2023-11-13 16:23:08,CEBRA,"MAIPU 550,CAPITAL FEDERAL,CAPITAL FEDERAL",CABA,-34.605326,-58.376658,1
117,1,2023-11-13 16:23:08,2023-11-13 16:23:08,2023-11-13 16:23:08,CEBRA,"GUEMES 897 L 0081,BUENOS AIRES,AVELLANEDA",GBA,-34.676931,-58.36656,1
118,1,2023-11-13 16:23:08,2023-11-13 16:23:08,2023-11-13 16:23:08,CEBRA,"AYACUCHO 1425,CAPITAL FEDERAL,CAPITAL FEDERAL",CABA,-34.5972948,-58.3960843,1
119,1,2023-11-13 16:23:08,2023-11-13 16:23:08,2023-11-13 16:23:08,CEBRA,"COLECTORA ACCESO NO. KM 50.400,BUENOS AIRES,PILAR",GBA,-34.6187973,-58.8416261,1
120,1,2023-11-13 16:23:08,2023-11-13 16:23:08,2023-11-13 16:23:08,CEBRA,"PARAGUAY 4979,CAPITAL FEDERAL,CAPITAL FEDERAL",CABA,-34.5811051,-58.4284202,1
121,1,2023-11-13 16:23:08,2023-11-13 16:23:08,2023-11-13 16:23:08,CEBRA,"CARLOS PELLEGRINI 445,CAPITAL FEDERAL,CAPITAL FEDERAL",CABA,-34.6037014,-58.3813785,1
122,1,2023-11-13 16:23:08,2023-11-13 16:23:08,2023-11-13 16:23:08,CEBRA,"Av SAN MARTIN 3290  CABA,CAPITAL FEDERAL,CAPITAL FEDERAL",CABA,-34.6017305,-58.4700933,1
123,1,2023-11-13 16:23:08,2023-11-13 16:23:08,2023-11-13 16:23:08,CEBRA,"AV. TRIUNVIRATO 4271,CAPITAL FEDERAL,CAPITAL FEDERAL",CABA,-34.5775837,-58.4808644,1
124,1,2023-11-13 16:23:08,2023-11-13 16:23:08,2023-11-13 16:23:08,CEBRA,"AV DIAZ VELEZ 4820,CAPITAL FEDERAL,CAPITAL FEDERAL",CABA,-34.6089441,-58.4349567,1
125,1,2023-11-13 16:23:08,2023-11-13 16:23:08,2023-11-13 16:23:08,CEBRA,"AV. RIVADAVIA 2201,CAPITAL FEDERAL,CAPITAL FEDERAL",CABA,-34.6094579,-58.397767,1
126,1,2023-11-13 16:23:08,2023-11-13 16:23:08,2023-11-13 16:23:08,CEBRA,"AV. RIVADAVIA 4076,CAPITAL FEDERAL,CAPITAL FEDERAL",CABA,-34.612553,-58.42318,1
127,1,2023-11-13 16:23:08,2023-11-13 16:23:08,2023-11-13 16:23:08,CEBRA,"AV. SAENZ 840,CAPITAL FEDERAL,CAPITAL FEDERAL",CABA,-34.6500468,-58.4160367,1
128,1,2023-11-13 16:23:08,2023-11-13 16:23:08,2023-11-13 16:23:08,CEBRA,"LIMA 1315,CAPITAL FEDERAL,CAPITAL FEDERAL",CABA,-34.6091057,-58.3825211,1
129,1,2023-11-13 16:23:08,2023-11-13 16:23:08,2023-11-13 16:23:08,CEBRA,"AV. BEIRO 4580,CAPITAL FEDERAL,CAPITAL FEDERAL",CABA,-34.6081265,-58.5149958,1
130,1,2023-11-13 16:23:08,2023-11-13 16:23:08,2023-11-13 16:23:08,CEBRA,"AV. DE MAYO 959,CAPITAL FEDERAL,CAPITAL FEDERAL",CABA,-34.6087085,-58.3799844,1
131,1,2023-11-13 16:23:08,2023-11-13 16:23:08,2023-11-13 16:23:08,CEBRA,"AV. SCALABRINI ORTIZ 1901,CAPITAL FEDERAL,CAPITAL FEDERAL",CABA,-34.5892978,-58.4220396,1
132,1,2023-11-13 16:23:08,2023-11-13 16:23:08,2023-11-13 16:23:08,CEBRA,"AV. RIVADAVIA 6182,CAPITAL FEDERAL,CAPITAL FEDERAL",CABA,-34.6257399,-58.4535802,1
133,1,2023-11-13 16:23:08,2023-11-13 16:23:08,2023-11-13 16:23:08,CEBRA,"AV. FEDERICO LACROZE 3978,CAPITAL FEDERAL,CAPITAL FEDERAL",CABA,-34.5850801,-58.4536112,1
134,1,2023-11-13 16:23:08,2023-11-13 16:23:08,2023-11-13 16:23:08,CEBRA,"O HIGGINS 1955,BUENOS AIRES,LANUS",GBA,-34.7087685,-58.3881142,1
135,1,2023-11-13 16:23:08,2023-11-13 16:23:08,2023-11-13 16:23:08,CEBRA,"AV. SANTA FE 2340,BUENOS AIRES,MARTINEZ",GBA,-34.595233,-58.400325,1
136,1,2023-11-13 16:23:08,2023-11-13 16:23:08,2023-11-13 16:23:08,CEBRA,"AV CENTENARIO 648,BUENOS AIRES,SAN ISIDRO",GBA,-34.4693258,-58.5176576,1
137,1,2023-11-13 16:23:08,2023-11-13 16:23:08,2023-11-13 16:23:08,CEBRA,"AV. CABILDO 436,CAPITAL FEDERAL,CAPITAL FEDERAL",CABA,-34.5720269,-58.4413889,1
138,1,2023-11-13 16:23:08,2023-11-13 16:23:08,2023-11-13 16:23:08,CEBRA,"AV. MAIPU 1468,BUENOS AIRES,VICENTE LOPEZ",GBA,-34.524381,-58.48382,1
139,1,2023-11-13 16:23:08,2023-11-13 16:23:08,2023-11-13 16:23:08,CEBRA,"POSADAS 1245 LOC 050,CAPITAL FEDERAL,CAPITAL FEDERAL",CABA,-27.3621374,-55.9008746,1
140,1,2023-11-13 16:23:08,2023-11-13 16:23:08,2023-11-13 16:23:08,CEBRA,"AV CORRIENTES 3247 L 2021,CAPITAL FEDERAL,CAPITAL FEDERAL",CABA,-34.6038802,-58.4109897,1
141,1,2023-11-13 16:23:08,2023-11-13 16:23:08,2023-11-13 16:23:08,APIO VERDE,"AV. CABILDO 1598,CAPITAL FEDERAL,CAPITAL FEDERAL",CABA,-34.5664249,-58.4524071,1
142,1,2023-11-13 16:23:08,2023-11-13 16:23:08,2023-11-13 16:23:08,APIO VERDE,"AV. CABILDO 1972,CAPITAL FEDERAL,CAPITAL FEDERAL",CABA,-34.5635258,-58.4560196,1
143,1,2023-11-13 16:23:08,2023-11-13 16:23:08,2023-11-13 16:23:08,APIO VERDE,"SANTA FE 2239,CAPITAL FEDERAL,CAPITAL FEDERAL",CABA,-34.5951549,-58.3990062,1
144,1,2023-11-13 16:23:08,2023-11-13 16:23:08,2023-11-13 16:23:08,APIO VERDE,"AV. CABILDO 2433,CAPITAL FEDERAL,CAPITAL FEDERAL",CABA,-34.5587809,-58.4592546,1
145,1,2023-11-13 16:23:08,2023-11-13 16:23:08,2023-11-13 16:23:08,APIO VERDE,"SANTA FE 2646,CAPITAL FEDERAL,CAPITAL FEDERAL",CABA,-34.5939206,-58.4045238,1
146,1,2023-11-13 16:23:08,2023-11-13 16:23:08,2023-11-13 16:23:08,APIO VERDE,"FCO LACROZE 2434,CAPITAL FEDERAL,CAPITAL FEDERAL",CABA,-34.5706566,-58.4451058,1
147,1,2023-11-13 16:23:08,2023-11-13 16:23:08,2023-11-13 16:23:08,APIO VERDE,"AV. MAIPU 2235,BUENOS AIRES,OLIVOS",GBA,-34.5155101,-58.4878683,1
148,1,2023-11-13 16:23:08,2023-11-13 16:23:08,2023-11-13 16:23:08,APIO VERDE,"JOSE MARIA MORENO 55,CAPITAL FEDERAL,CAPITAL FEDERAL",CABA,-34.6189385,-58.4362364,1
149,1,2023-11-13 16:23:08,2023-11-13 16:23:08,2023-11-13 16:23:08,APIO VERDE,"9 DE JULIO 339,BUENOS AIRES,SAN ISIDRO",GBA,-34.4695793,-58.5111111,1
150,1,2023-11-13 16:23:08,2023-11-13 16:23:08,2023-11-13 16:23:08,TIO MARIO,"STEPHENSON 2820,CAPITAL FEDERAL,CAPITAL FEDERAL",CABA,-34.6036844,-58.3815591,1
151,1,2023-11-13 16:23:08,2023-11-13 16:23:08,2023-11-13 16:23:08,TIO MARIO,"AV. CABILDO 1537,CAPITAL FEDERAL,CAPITAL FEDERAL",CABA,-34.5664847,-58.4512852,1
152,1,2023-11-13 16:23:08,2023-11-13 16:23:08,2023-11-13 16:23:08,TIO MARIO,"AV.SANTA FE 2464,CAPITAL FEDERAL,CAPITAL FEDERAL",CABA,-34.594732,-58.401964,1
153,1,2023-11-13 16:23:08,2023-11-13 16:23:08,2023-11-13 16:23:08,TIO MARIO,"AV. CORDOBA 4739,CAPITAL FEDERAL,CAPITAL FEDERAL",CABA,-34.5930516,-58.4314479,1
154,1,2023-11-13 16:23:08,2023-11-13 16:23:08,2023-11-13 16:23:08,TIO MARIO,"AV. SANTA FE 1561,CAPITAL FEDERAL,CAPITAL FEDERAL",CABA,-34.5955044,-58.3893542,1
155,1,2023-11-13 16:23:08,2023-11-13 16:23:08,2023-11-13 16:23:08,TIO MARIO,"STEPHENSON 2820,CAPITAL FEDERAL,CAPITAL FEDERAL",CABA,-34.6036844,-58.3815591,1
156,1,2023-11-13 16:23:08,2023-11-13 16:23:08,2023-11-13 16:23:08,TIO MARIO,"VICENTE LOPEZ 1681,CAPITAL FEDERAL,CAPITAL FEDERAL",CABA,-34.591767,-58.3895852,1
157,1,2023-11-13 16:23:08,2023-11-13 16:23:08,2023-11-13 16:23:08,CARROUSELL,"AV. SAN MARTIN 1555,BUENOS AIRES,SAN MARTIN",GBA,-34.606141,-58.451468,1
158,1,2023-11-13 16:23:08,2023-11-13 16:23:08,2023-11-13 16:23:08,CARROUSELL,"CALLE SAN MARTIN 1940,BUENOS AIRES,SAN MARTIN",GBA,-34.5757521,-58.5370965,1
159,1,2023-11-13 16:23:08,2023-11-13 16:23:08,2023-11-13 16:23:08,CARROUSELL,"CABILDO 2247,CAPITAL FEDERAL,CAPITAL FEDERAL",CABA,-34.5604395,-58.4575577,1
160,1,2023-11-13 16:23:08,2023-11-13 16:23:08,2023-11-13 16:23:08,CARROUSELL,"FLORENCIO AMEGHINO 17,BUENOS AIRES,MONTE GRANDE",GBA,-34.81723,-58.467238,1
161,1,2023-11-13 16:23:08,2023-11-13 16:23:08,2023-11-13 16:23:08,CARROUSELL,"RAMON FALCON 7145,CAPITAL FEDERAL,CAPITAL FEDERAL",CABA,-34.6267105,-58.4532989,1
162,1,2023-11-13 16:23:08,2023-11-13 16:23:08,2023-11-13 16:23:08,CARROUSELL,"BEIRO 5236/40,CAPITAL FEDERAL,CAPITAL FEDERAL",CABA,-34.6040168,-58.5084954,1
163,1,2023-11-13 16:23:08,2023-11-13 16:23:08,2023-11-13 16:23:08,CARROUSELL,"AV. RIVADAVIA 7147/49,CAPITAL FEDERAL,CAPITAL FEDERAL",CABA,-34.624312,-58.4506537,1
164,1,2023-11-13 16:23:08,2023-11-13 16:23:08,2023-11-13 16:23:08,CARROUSELL,"HIPOLITO YRIGOYEN 8942,BUENOS AIRES,LOMAS DE ZAMORA",GBA,-34.7611823,-58.4302476,1
165,1,2023-11-13 16:23:08,2023-11-13 16:23:08,2023-11-13 16:23:08,CARROUSELL,"AV CABILDO 2231,BUENOS AIRES,MARTINEZ",GBA,-34.5606786,-58.4576373,1
166,1,2023-11-13 16:23:08,2023-11-13 16:23:08,2023-11-13 16:23:08,CARROUSELL,"JUAN MANUEL DE ROSAS 3910 L101,BUENOS AIRES,SAN JUSTO",GBA,-34.6850358,-58.5570604,1
167,1,2023-11-13 16:23:08,2023-11-13 16:23:08,2023-11-13 16:23:08,CARROUSELL,"AV. PTE. PERON 1260,BUENOS AIRES,SAN MIGUEL",GBA,-34.6036844,-58.3815591,1
168,1,2023-11-13 16:23:08,2023-11-13 16:23:08,2023-11-13 16:23:08,CARROUSELL,"AV. RIVADAVIA 18136,BUENOS AIRES,MORON",GBA,-34.6492634,-58.6190032,1
169,1,2023-11-13 16:23:08,2023-11-13 16:23:08,2023-11-13 16:23:08,CARROUSELL,"AYACUCHO,CAPITAL FEDERAL,CAPITAL FEDERAL",CABA,-34.5980158,-58.3959847,1
170,1,2023-11-13 16:23:08,2023-11-13 16:23:08,2023-11-13 16:23:08,CITY KIDS,"DONATO ALVAREZ 1650,CAPITAL FEDERAL,CAPITAL FEDERAL",CABA,-34.6030312,-58.4642236,1
171,1,2023-11-13 16:23:08,2023-11-13 16:23:08,2023-11-13 16:23:08,CITY KIDS,"PANAMERICANA RAMAL PILAR KM44,BUENOS AIRES,DEL VISO",GBA,-34.4504931,-58.7419056,1
172,1,2023-11-13 16:23:08,2023-11-13 16:23:08,2023-11-13 16:23:08,CITY KIDS,"PASEO CHAMPAGNAT,BUENOS AIRES,PILAR",GBA,-34.4498162,-58.9165601,1
173,1,2023-11-13 16:23:08,2023-11-13 16:23:08,2023-11-13 16:23:08,CITY KIDS,"AV DE LOS LAGOS 7010,BUENOS AIRES,NORDELTA",GBA,-34.3999357,-58.6547626,1
174,1,2023-11-13 16:23:08,2023-11-13 16:23:08,2023-11-13 16:23:08,CITY KIDS,"AV. 9 DE JULIO 1452,BUENOS AIRES,LANUS",GBA,-34.7099445,-58.3869665,1
175,1,2023-11-13 16:23:08,2023-11-13 16:23:08,2023-11-13 16:23:08,CITY KIDS,"AV. ARTURO ILLIA 3770,BUENOS AIRES,SAN MIGUEL",GBA,-34.5331268,-58.70158,1
176,1,2023-11-13 16:23:08,2023-11-13 16:23:08,2023-11-13 16:23:08,CITY KIDS,"PEAT RIVADAVIA 123,BUENOS AIRES,QUILMES",GBA,-34.7206336,-58.2546051,1
177,1,2023-11-13 16:23:08,2023-11-13 16:23:08,2023-11-13 16:23:08,CITY KIDS,"CORRIENTES 5366,CAPITAL FEDERAL,CAPITAL FEDERAL",CABA,-34.5983781,-58.4407245,1
178,1,2023-11-13 16:23:08,2023-11-13 16:23:08,2023-11-13 16:23:08,CITY KIDS,"VARELA 4866,CAPITAL FEDERAL,CAPITAL FEDERAL",CABA,-34.6110158,-58.5175158,1
179,1,2023-11-13 16:23:08,2023-11-13 16:23:08,2023-11-13 16:23:08,CITY KIDS,"RIVADAVIA 5152,CAPITAL FEDERAL,CAPITAL FEDERAL",CABA,-34.619274,-58.438243,1
180,1,2023-11-13 16:23:08,2023-11-13 16:23:08,2023-11-13 16:23:08,CITY KIDS,"IRIGOYEN 2647,BUENOS AIRES,SAN ISIDRO",GBA,-34.470829,-58.5286102,1
181,1,2023-11-13 16:23:08,2023-11-13 16:23:08,2023-11-13 16:23:08,CITY KIDS,"AV. DONATO ALVAREZ 1660,CAPITAL FEDERAL,CAPITAL FEDERAL",CABA,-34.6080059,-58.4625299,1
182,1,2023-11-13 16:23:08,2023-11-13 16:23:08,2023-11-13 16:23:08,CITY KIDS,"AV. SANTA FE 1153,CAPITAL FEDERAL,CAPITAL FEDERAL",CABA,-34.5954325,-58.3835896,1
183,1,2023-11-13 16:23:08,2023-11-13 16:23:08,2023-11-13 16:23:08,TA TE TI,"MUÑECAS 168,TUCUMAN,SAN MIGUEL DE TUCUMAN",INT,-26.8284071,-65.205819,1
184,1,2023-11-13 16:23:08,2023-11-13 16:23:08,2023-11-13 16:23:08,TA TE TI,"PEATONAL FLORIDA 177,SALTA,SALTA",INT,-24.7919703,-65.4125026,1
185,1,2023-11-13 16:23:08,2023-11-13 16:23:08,2023-11-13 16:23:08,TA TE TI,"PEATONAL TUCUMAN 239,SANTIAGO DEL ESTERO,SANTIAGO DEL ESTERO",INT,-27.7842564,-64.2617347,1
186,1,2023-11-13 16:23:08,2023-11-13 16:23:08,2023-11-13 16:23:08,TA TE TI,"24 DE SEPTIMEBRE 115,SANTIAGO DEL ESTERO,SANTIAGO DEL ESTERO",INT,-27.7886871,-64.2598713,1
187,1,2023-11-13 16:23:08,2023-11-13 16:23:08,2023-11-13 16:23:08,PUMBA LA LUMBA,"HIPOLITO YRIGOYEN 385,BUENOS AIRES,GENERAL PACHECO",GBA,-34.4529709,-58.6429866,1
188,1,2023-11-13 16:23:08,2023-11-13 16:23:08,2023-11-13 16:23:08,PUMBA LA LUMBA,"AV CORRIENTES 2470 P 2 OF 34,CAPITAL FEDERAL,CAPITAL FEDERAL",CABA,-34.6048671,-58.4016779,1
189,1,2023-11-13 16:23:08,2023-11-13 16:23:08,2023-11-13 16:23:08,PUMBA LA LUMBA,"BOULOGNE SUR MER 42,BUENOS AIRES,GENERAL PACHECO",GBA,-34.4529709,-58.6429866,1
190,1,2023-11-13 16:23:08,2023-11-13 16:23:08,2023-11-13 16:23:08,PUMBA LA LUMBA,"Av. Constitución 982/984,BUENOS AIRES,SAN FERNANDO",GBA,-34.4430618,-58.5579643,1
191,1,2023-11-13 16:23:08,2023-11-13 16:23:08,2023-11-13 16:23:08,PUMBA LA LUMBA,"AV. CONSTITUCION 256,BUENOS AIRES,SAN FERNANDO",GBA,-34.4430618,-58.5579643,1
192,1,2023-11-13 16:23:08,2023-11-13 16:23:08,2023-11-13 16:23:08,PUMBA LA LUMBA,"TOMKINSON 2916,BUENOS AIRES,SAN ISIDRO",GBA,-34.470829,-58.5286102,1
193,1,2023-11-13 16:23:08,2023-11-13 16:23:08,2023-11-13 16:23:08,PUMBA LA LUMBA,"MITRE 398 ESQ. ITALIA,BUENOS AIRES,TIGRE",GBA,-34.425087,-58.5796585,1
194,1,2023-11-13 16:23:08,2023-11-13 16:23:08,2023-11-13 16:23:08,PLANETA BB,"CORRIENTES 2340,CAPITAL FEDERAL,CAPITAL FEDERAL",CABA,-34.604748,-58.3999929,1
195,1,2023-11-13 16:23:08,2023-11-13 16:23:08,2023-11-13 16:23:08,PLANETA BB,"SANTA FE 2553,CAPITAL FEDERAL,CAPITAL FEDERAL",CABA,-34.5939578,-58.4029915,1
196,1,2023-11-13 16:23:08,2023-11-13 16:23:08,2023-11-13 16:23:08,PLANETA BB,"CABILDO 2555,CAPITAL FEDERAL,CAPITAL FEDERAL",CABA,-34.5575537,-58.4600583,1
197,1,2023-11-13 16:23:08,2023-11-13 16:23:08,2023-11-13 16:23:08,MAR PLAST S.R.L.,"AZCUENAGA 334,CAPITAL FEDERAL,CAPITAL FEDERAL",CABA,-34.6056961,-58.4008592,1
198,1,2023-11-13 16:23:08,2023-11-13 16:23:08,2023-11-13 16:23:08,MAR PLAST S.R.L.,"AV OHIGGINS 3151,CORDOBA,BARRIO OÑA",INT,-31.4495658,-64.1680051,1
